[{"number":33,"name":"BVD K. ADENAUER","address":"BVD K . ADENAUER - BOULEVARD KONRAD ADENAUER ( DEVANT BEI )","latitude":49.6201,"longitude":6.1388},{"number":17,"name":"ROBERT SCHUMAN","address":"ROBERT SCHUMAN - SQUARE SCHUMAN","latitude":49.6173,"longitude":6.126},{"number":27,"name":"MERCIER","address":"MERCIER - RUE DU COMMERCE / PARKING","latitude":49.5984,"longitude":6.1323},{"number":62,"name":"FOIRE","address":"bvd Pierre Frieden/circuit de la foire","latitude":49.63706,"longitude":6.17044},{"number":1,"name":"LEON XIII","address":"LEON XIII-RUE DE BONNEVOIE ( DEVANT N° 103 )","latitude":49.5981,"longitude":6.1377},{"number":8,"name":"METZER PLAZ","address":"METZER PLAZ - PLACE DE METZ","latitude":49.607,"longitude":6.1273},{"number":53,"name":"LUDWIG VAN BEETHOVEN","address":"LUDWIG VAN BEETHOVEN - RUE LUDWIG VAN BEETHOVEN ( DEVANT N° 45 )","latitude":49.59,"longitude":6.1172},{"number":6,"name":"AAL BRECK","address":"AAL BRECK - VIADUC / BOULEVARD DE LA PETRUSSE","latitude":49.6046,"longitude":6.133},{"number":47,"name":"LEOPOLD GOEBEL","address":"LEOPOLD GOEBEL - ALLEE LEOPOLD GOEBEL ( DEVANT N° 109 )","latitude":49.6122,"longitude":6.1072},{"number":23,"name":"REIMERWEE","address":"REIMERWEE - BOULEVARD K ADENAUER / RUE K KALERGI","latitude":49.6294,"longitude":6.1574},{"number":45,"name":"AUBEPINES","address":"AUBEPINES - VAL SAINTE CROIX / RUE DES AUBEPINES","latitude":49.6126,"longitude":6.0977},{"number":68,"name":"UM SCHLASS","address":"Ceinture um schlass","latitude":49.57337,"longitude":6.14397},{"number":14,"name":"KNUEDLER","address":"KNUEDLER - PLACE GUILLAUME","latitude":49.6104,"longitude":6.1315},{"number":38,"name":"HELLEG GEESCHT","address":"HELLEG GEESCHT - PLATEAU SAINT ESPRIT","latitude":49.6077,"longitude":6.1349},{"number":19,"name":"PHILHARMONIE","address":"PHILHARMONIE - AVENUE JF KENNEDY / PLACE DE L'EUROPE","latitude":49.6199,"longitude":6.1444},{"number":72,"name":"AN DER BOURMICHT","address":"Zone industrielle bourmicht/rue des mérovingiens","latitude":49.61086,"longitude":6.08097},{"number":16,"name":"AMELIE","address":"AMELIE - BOULEVARD ROYAL / AVENUE AMELIE","latitude":49.6134,"longitude":6.1258},{"number":56,"name":"FISCHERHAFF","address":"Rue de cessange 177","latitude":49.5911,"longitude":6.1057},{"number":48,"name":"BGL BNP PARIBAS KIRCHBERG","address":"BGL BNP PARIBAS KIRCHBERG - RUE EDOUARD STEICHEN ( FACE N° 10 )","latitude":49.6318,"longitude":6.1741},{"number":15,"name":"THEATER PLAZ","address":"THEATER PLAZ - PLACE DU THEATRE ( FACE N°1 )","latitude":49.6127,"longitude":6.1311},{"number":37,"name":"GAULOIS","address":"Rue des gaulois 11","latitude":49.60164,"longitude":6.13736},{"number":50,"name":"MUGUETS","address":"MUGUETS - RUE DES MUGUETS ( DEVANT N° 57 )","latitude":49.6216,"longitude":6.1565},{"number":30,"name":"MERKELS PLAZ","address":"MERKELS PLAZ - RUE JEAN BAPTISTE MERKELS / PLACE MERKELS","latitude":49.5998,"longitude":6.1225},{"number":13,"name":"GELLE FRA","address":"GELLE FRA - BOULEVARD ROOSEVELT / PLACE DE LA CONSTITUTION","latitude":49.6096,"longitude":6.129},{"number":25,"name":"KIEM","address":"KIEM - CIRCUIT DE LA FOIRE / RUE ALPHONSE WEICKER","latitude":49.6343,"longitude":6.1671},{"number":65,"name":"BEI DER SCHOUL","address":"Rue ferdinand kuhn","latitude":49.58421,"longitude":6.14202},{"number":7,"name":"ROUSEGAERTCHEN","address":"ROUSEGAERTCHEN - PLACE DES MARTYRS","latitude":49.6049,"longitude":6.1296},{"number":52,"name":"BEI DER AUER","address":"BEI DER AUER - RUE DE GASPERICH ( DEVANT N° 20 )","latitude":49.5912,"longitude":6.1252},{"number":35,"name":"GASTON DIDERICH","address":"GASTON DIDERICH - AVENUE GASTON DIDERICH","latitude":49.6098,"longitude":6.1062},{"number":57,"name":"BOUILLON","address":"Rue de Bouillon / parking","latitude":49.60001,"longitude":6.10826},{"number":29,"name":"MONTEREY","address":"MONTEREY - AVENUE DE MONTEREY ( FACE N° 49 )","latitude":49.6094,"longitude":6.1193},{"number":49,"name":"MARGUERITES","address":"MARGUERITES - RUE DES MARGUERITES ( FACE N° 105 A )","latitude":49.6237,"longitude":6.1606},{"number":5,"name":"PARAISER PLAZ","address":"PARAISER PLAZ - AVENUE DE LA LIBERTE / PLACE DE PARIS","latitude":49.6037,"longitude":6.131},{"number":36,"name":"RUE J.B. GELLE","address":"RUE J.B. GELLE - RUE JEAN- BAPTISTE GELLE ( DEVANT N° 6 )","latitude":49.5967,"longitude":6.1404},{"number":10,"name":"MERL PARC","address":"MERL PARC - RUE DU 10 SEPTEMBRE ( DEVANT N° 108 )","latitude":49.608,"longitude":6.1122},{"number":2,"name":"GARE CENTRALE","address":"GARE CENTRALE-PLACE DE LA GARE ( SUR QUAI N° 1 )","latitude":49.6002,"longitude":6.1336},{"number":4,"name":"ROCADE","address":"ROCADE-RUE DU LABORATOIRE ( DEVANT VDL )","latitude":49.6028,"longitude":6.1365},{"number":55,"name":"SCHAARFEN ECK","address":"Rue Emile Bian","latitude":49.58043,"longitude":6.11465},{"number":12,"name":"ALDRINGEN","address":"ALDRINGEN - PLACE HAMILIUS","latitude":49.6114,"longitude":6.1267},{"number":44,"name":"ARELER STROOSS","address":"ARELER STROOSS - RUE DES AUBEPINES ( FACE N° 187 )","latitude":49.6162,"longitude":6.0984},{"number":31,"name":"PLACE DE FRANCE","address":"PLACE DE FRANCE - PLACE DE FRANCE","latitude":49.6062,"longitude":6.1059},{"number":39,"name":"KRAIZGRENNCHEN","address":"KRAIZGRENNCHEN - SQUARE DE NEW- YORK","latitude":49.6133,"longitude":6.117},{"number":34,"name":"KOLLEISCH","address":"KOLLEISCH - RUE DE BRAGANCE","latitude":49.6042,"longitude":6.1119},{"number":63,"name":"LABOURS","address":"Rue des labours/Bld J.F.Kennedy","latitude":49.6301,"longitude":6.16843},{"number":41,"name":"PLACE LAURENT","address":"PLACE LAURENT - PLACE AUGUSTE LAURENT","latitude":49.6202,"longitude":6.1227},{"number":28,"name":"CHARLY'S GARE","address":"CHARLY'S GARE - BOULEVARD PRINCE HENRI","latitude":49.6126,"longitude":6.1242},{"number":58,"name":"SCHLUECHTHAUS","address":"Rue du l'abattoir","latitude":49.60136,"longitude":6.11581},{"number":26,"name":"HOLLERECHER PLAZ","address":"HOLLERECHER PLAZ - PLACE SAINT PIERRE ET ¨PAUL","latitude":49.5983,"longitude":6.1178},{"number":43,"name":"LYCEE TECHNIQUE  DE BONNEVOIE","address":"LYCEE TECHNIQUE DE BONNEVOIE - RUE DU CIMETIERE ( DEVANT N° 110 )","latitude":49.5911,"longitude":6.1416},{"number":59,"name":"ST HUBERT","address":"Rue de Merl 147 / rue st Hubert","latitude":49.60289,"longitude":6.09322},{"number":69,"name":"UM REIMERWEE","address":"Rue du kiem","latitude":49.61769,"longitude":6.08276},{"number":18,"name":"CAMPUS LAMPERTSBIERG","address":"CAMPUS LAMPERTSBIERG - RUE DE LA FAIENCERIE ( DEVANT N° 151 )","latitude":49.6219,"longitude":6.1118},{"number":3,"name":"STROOSSBUERGER PLAZ","address":"STROOSSBUERGER PLAZ - PLACE DE STRASBOURG ( FACE N° 41 )","latitude":49.6008,"longitude":6.1281},{"number":66,"name":"BEIM TENNIS","address":"Rue des Scillas","latitude":49.58237,"longitude":6.13624},{"number":40,"name":"GLACIS KAPELL","address":"GLACIS KAPELL - BOULEVARD DE LA FOIRE ( DEVANT N° 21 )","latitude":49.6147,"longitude":6.1211},{"number":32,"name":"PISCINE OLYMPIQUE","address":"PISCINE OLYMPIQUE - RUE LEON HENGEN","latitude":49.624,"longitude":6.1498},{"number":21,"name":"JEAN MONNET","address":"JEAN MONNET - BOULEVARD KONRAD ADENAUER / RUE ERASME","latitude":49.6255,"longitude":6.1482},{"number":42,"name":"SQUARE ANDRE","address":"SQUARE ANDRE - SQUARE EDOUARD ANDRE ( DEVANT N° 1 )","latitude":49.6238,"longitude":6.1188},{"number":46,"name":"LONKECHER STROOSS","address":"LONKECHER STROOSS - ROUTE DE LONGWY ( DEVANT N° 241 )","latitude":49.6055,"longitude":6.1},{"number":61,"name":"FRIEDEN","address":"Bvd Pierre frieden","latitude":49.63713,"longitude":6.16458},{"number":51,"name":"SAUERWISS","address":"SAUERWISS - RUE ABBE FRANCOIS LASCOMBE ( DEVANT N° 54 )","latitude":49.5939,"longitude":6.1252},{"number":71,"name":"LES THERMES","address":"Rue du cimetiere","latitude":49.61489,"longitude":6.07275},{"number":67,"name":"PETERNELCHEN","address":"Rue des Bruyeres","latitude":49.57756,"longitude":6.13727},{"number":54,"name":"CLOCHE D' OR","address":"CLOCHE D'OR - RUE JEAN PIRET ( DEVANT N° 3 )","latitude":49.5834,"longitude":6.1156},{"number":70,"name":"GEMENG STROOSSEN","address":"Rue des romains","latitude":49.61909,"longitude":6.07227},{"number":9,"name":"CONVICT","address":"CONVICT - PLACE DU FOYER","latitude":49.6059,"longitude":6.1199},{"number":60,"name":"BOCH","address":"Rue J-F Boch","latitude":49.61925,"longitude":6.10842},{"number":64,"name":"GRENIER","address":"Rue Edouard grenier","latitude":49.59459,"longitude":6.14277}]